[
  {
    "id": 3017680,
    "name": "Forville",
    "country": "FR",
    "coord": {
      "lon": 6.6239,
      "lat": 44.913849
    }
  },
  {
    "id": 3007202,
    "name": "La Portanière",
    "country": "FR",
    "coord": {
      "lon": 6.17341,
      "lat": 43.248611
    }
  },
  {
    "id": 6441676,
    "name": "Wittenheim",
    "country": "FR",
    "coord": {
      "lon": 7.33333,
      "lat": 47.816669
    }
  },
  {
    "id": 6438569,
    "name": "Wattrelos",
    "country": "FR",
    "coord": {
      "lon": 3.21667,
      "lat": 50.700001
    }
  },
  {
    "id": 6454050,
    "name": "Vitré",
    "country": "FR",
    "coord": {
      "lon": -1.2,
      "lat": 48.133331
    }
  },
  {
    "id": 6446231,
    "name": "Viry-Châtillon",
    "country": "FR",
    "coord": {
      "lon": 2.38333,
      "lat": 48.666672
    }
  },
  {
    "id": 6452039,
    "name": "Villeneuve-le-Roi",
    "country": "FR",
    "coord": {
      "lon": 2.41667,
      "lat": 48.73333
    }
  },
  {
    "id": 6453748,
    "name": "Vierzon",
    "country": "FR",
    "coord": {
      "lon": 2.08333,
      "lat": 47.216671
    }
  },
  {
    "id": 6446218,
    "name": "Verrières-le-Buisson",
    "country": "FR",
    "coord": {
      "lon": 2.26667,
      "lat": 48.75
    }
  },
  {
    "id": 6457368,
    "name": "Arrondissement d'Antony",
    "country": "FR",
    "coord": {
      "lon": 2.3006,
      "lat": 48.7617
    }
  },
  {
    "id": 6425695,
    "name": "Vallauris",
    "country": "FR",
    "coord": {
      "lon": 7.05,
      "lat": 43.583328
    }
  },
  {
    "id": 6438526,
    "name": "Tourcoing",
    "country": "FR",
    "coord": {
      "lon": 3.15,
      "lat": 50.716671
    }
  },
  {
    "id": 6446342,
    "name": "Taverny",
    "country": "FR",
    "coord": {
      "lon": 2.21667,
      "lat": 49.033329
    }
  },
  {
    "id": 6446340,
    "name": "Soisy-sous-Montmorency",
    "country": "FR",
    "coord": {
      "lon": 2.3,
      "lat": 48.98333
    }
  },
  {
    "id": 6438498,
    "name": "Sin-le-Noble",
    "country": "FR",
    "coord": {
      "lon": 3.11667,
      "lat": 50.366669
    }
  },
  {
    "id": 6451981,
    "name": "Sèvres",
    "country": "FR",
    "coord": {
      "lon": 2.2,
      "lat": 48.816669
    }
  },
  {
    "id": 6427088,
    "name": "Salon-de-Provence",
    "country": "FR",
    "coord": {
      "lon": 5.1,
      "lat": 43.633331
    }
  },
  {
    "id": 6455342,
    "name": "Saint-Ouen",
    "country": "FR",
    "coord": {
      "lon": 2.33333,
      "lat": 48.900002
    }
  },
  {
    "id": 6441760,
    "name": "Saint-Fons",
    "country": "FR",
    "coord": {
      "lon": 4.86667,
      "lat": 45.700001
    }
  },
  {
    "id": 6454369,
    "name": "Saint-Avold",
    "country": "FR",
    "coord": {
      "lon": 6.7,
      "lat": 49.099998
    }
  },
  {
    "id": 6454153,
    "name": "Rezé",
    "country": "FR",
    "coord": {
      "lon": -1.56667,
      "lat": 47.200001
    }
  },
  {
    "id": 6454341,
    "name": "Pontivy",
    "country": "FR",
    "coord": {
      "lon": -2.98333,
      "lat": 48.066669
    }
  },
  {
    "id": 6454014,
    "name": "Pessac",
    "country": "FR",
    "coord": {
      "lon": -0.61667,
      "lat": 44.799999
    }
  },
  {
    "id": 6446184,
    "name": "Palaiseau",
    "country": "FR",
    "coord": {
      "lon": 2.25,
      "lat": 48.716671
    }
  },
  {
    "id": 6443784,
    "name": "Ozoir-la-Ferrière",
    "country": "FR",
    "coord": {
      "lon": 2.66667,
      "lat": 48.76667
    }
  },
  {
    "id": 6441724,
    "name": "Oullins",
    "country": "FR",
    "coord": {
      "lon": 4.8,
      "lat": 45.716671
    }
  },
  {
    "id": 6446721,
    "name": "Mougins",
    "country": "FR",
    "coord": {
      "lon": 7,
      "lat": 43.599998
    }
  },
  {
    "id": 6446177,
    "name": "Morsang-sur-Orge",
    "country": "FR",
    "coord": {
      "lon": 2.35,
      "lat": 48.666672
    }
  },
  {
    "id": 6430140,
    "name": "Montélimar",
    "country": "FR",
    "coord": {
      "lon": 4.75,
      "lat": 44.566669
    }
  },
  {
    "id": 6453858,
    "name": "Montbéliard",
    "country": "FR",
    "coord": {
      "lon": 6.8,
      "lat": 47.51667
    }
  },
  {
    "id": 6452024,
    "name": "Maisons-Alfort",
    "country": "FR",
    "coord": {
      "lon": 2.43333,
      "lat": 48.799999
    }
  },
  {
    "id": 6430468,
    "name": "Louviers",
    "country": "FR",
    "coord": {
      "lon": 1.16667,
      "lat": 49.216671
    }
  },
  {
    "id": 6452023,
    "name": "Limeil-Brévannes",
    "country": "FR",
    "coord": {
      "lon": 2.4893,
      "lat": 48.7467
    }
  },
  {
    "id": 6457185,
    "name": "Les Pavillons-sous-Bois",
    "country": "FR",
    "coord": {
      "lon": 2.51667,
      "lat": 48.900002
    }
  },
  {
    "id": 6432528,
    "name": "Lattes",
    "country": "FR",
    "coord": {
      "lon": 3.9,
      "lat": 43.566669
    }
  },
  {
    "id": 6446146,
    "name": "Grigny",
    "country": "FR",
    "coord": {
      "lon": 2.39382,
      "lat": 48.653931
    }
  },
  {
    "id": 6446274,
    "name": "Goussainville",
    "country": "FR",
    "coord": {
      "lon": 2.474,
      "lat": 49.032001
    }
  },
  {
    "id": 6454157,
    "name": "Gien",
    "country": "FR",
    "coord": {
      "lon": 2.6297,
      "lat": 47.689201
    }
  },
  {
    "id": 6451993,
    "name": "Gagny",
    "country": "FR",
    "coord": {
      "lon": 2.53333,
      "lat": 48.883331
    }
  },
  {
    "id": 6455107,
    "name": "Firminy",
    "country": "FR",
    "coord": {
      "lon": 4.3,
      "lat": 45.383331
    }
  },
  {
    "id": 6433192,
    "name": "Échirolles",
    "country": "FR",
    "coord": {
      "lon": 5.71667,
      "lat": 45.133331
    }
  },
  {
    "id": 6441821,
    "name": "Décines-Charpieu",
    "country": "FR",
    "coord": {
      "lon": 4.9598,
      "lat": 45.7686
    }
  },
  {
    "id": 6455404,
    "name": "Dammarie-les-Lys",
    "country": "FR",
    "coord": {
      "lon": 2.65,
      "lat": 48.51667
    }
  },
  {
    "id": 6455339,
    "name": "Colombes",
    "country": "FR",
    "coord": {
      "lon": 2.25,
      "lat": 48.916672
    }
  },
  {
    "id": 6453697,
    "name": "Cognac",
    "country": "FR",
    "coord": {
      "lon": -0.33333,
      "lat": 45.700001
    }
  },
  {
    "id": 6428545,
    "name": "Chenôve",
    "country": "FR",
    "coord": {
      "lon": 5,
      "lat": 47.283329
    }
  },
  {
    "id": 6443604,
    "name": "Chelles",
    "country": "FR",
    "coord": {
      "lon": 2.6,
      "lat": 48.883331
    }
  },
  {
    "id": 6618272,
    "name": "Cesson-Sévigné",
    "country": "FR",
    "coord": {
      "lon": -1.603,
      "lat": 48.121201
    }
  },
  {
    "id": 3028097,
    "name": "Cayenne",
    "country": "FR",
    "coord": {
      "lon": 1.62803,
      "lat": 49.558578
    }
  }]
